[{"latitude":-30.056946,"longitude":-51.177096,"fatal":false,"injuried":0,"type":"EVENTUAL","address":"6400 AV IPIRANGA","region":"LESTE","date":"20130106","time":"17:25","day_or_night":"DIA","vehicles":["AUTO"]},{"latitude":-30.170088,"longitude":-51.150256,"fatal":false,"injuried":2,"type":"ABALROAMENTO","address":"4880 AV EDGAR PIRES DE CASTRO","region":"SUL","date":"20130108","time":"22:00","day_or_night":"NOITE","vehicles":["MOTO"]},{"latitude":-30.030053,"longitude":-51.219629,"fatal":false,"injuried":0,"type":"ABALROAMENTO","address":"187 R SARMENTO LEITE","region":"CENTRO","date":"20130110","time":"16:30","day_or_night":"DIA","vehicles":["TAXI"]},{"latitude":-30.030848,"longitude":-51.209701,"fatal":false,"injuried":1,"type":"ATROPELAMENTO","address":"268 R FELIPE CAMARAO","region":"CENTRO","date":"20130110","time":"17:45","day_or_night":"DIA","vehicles":[]},{"latitude":-30.016269,"longitude":-51.180272,"fatal":true,"injuried":0,"type":"ABALROAMENTO","address":"3927 AV CRISTOVAO COLOMBO","region":"NORTE","date":"20130112","time":"01:54","day_or_night":"NOITE","vehicles":["AUTO"]},{"latitude":-30.041006,"longitude":-51.211844,"fatal":false,"injuried":1,"type":"CHOQUE","address":"307 AV JERONIMO DE ORNELAS","region":"CENTRO","date":"20130113","time":"18:40","day_or_night":"NOITE","vehicles":["TAXI"]},{"latitude":-30.022391,"longitude":-51.221178,"fatal":false,"injuried":1,"type":"ABALROAMENTO","address":"2011 AV MAUA","region":"CENTRO","date":"20130114","time":"11:15","day_or_night":"DIA","vehicles":["AUTO"]},{"latitude":-30.04722,"longitude":-51.220607,"fatal":false,"injuried":1,"type":"ABALROAMENTO","address":"754 AV IPIRANGA","region":"LESTE","date":"20130115","time":"10:00","day_or_night":"DIA","vehicles":["AUTO"]},{"latitude":-30.027442,"longitude":-51.224518,"fatal":false,"injuried":1,"type":"COLISAO","address":"152 R DR FLORES","region":"CENTRO","date":"20130116","time":"11:00","day_or_night":"DIA","vehicles":["TAXI"]},{"latitude":-30.040624,"longitude":-51.197629,"fatal":false,"injuried":1,"type":"ABALROAMENTO","address":"802 R DONA EUGENIA","region":"LESTE","date":"20130117","time":"20:30","day_or_night":"NOITE","vehicles":["AUTO"]},{"latitude":-30.002683,"longitude":-51.126485,"fatal":false,"injuried":0,"type":"CHOQUE","address":"100 AV GEN RAPHAEL ZIPPIN","region":"NORTE","date":"20130123","time":"08:25","day_or_night":"DIA","vehicles":["AUTO"]},{"latitude":-30.001918,"longitude":-51.169093,"fatal":false,"injuried":1,"type":"ABALROAMENTO","address":"3606 AV SERTORIO","region":"NORTE","date":"20130124","time":"08:12","day_or_night":"DIA","vehicles":["ONIBUS_MET"]},{"latitude":-30.043631,"longitude":-51.227524,"fatal":false,"injuried":1,"type":"ABALROAMENTO","address":"AV PRAIA DE BELAS & R BARAO DO GRAVATAI","region":"CENTRO","date":"20130125","time":"18:00","day_or_night":"NOITE","vehicles":["AUTO"]},{"latitude":-30.04062,"longitude":-51.154034,"fatal":false,"injuried":1,"type":"ABALROAMENTO","address":"5710 AV PROTASIO ALVES","region":"LESTE","date":"20130129","time":"07:00","day_or_night":"DIA","vehicles":["AUTO"]},{"latitude":-30.03402,"longitude":-51.227296,"fatal":false,"injuried":1,"type":"ABALROAMENTO","address":"1022 R CEL FERNANDO MACHADO","region":"CENTRO","date":"20130130","time":"16:20","day_or_night":"DIA","vehicles":["AUTO","MOTO"]},{"latitude":-30.052061,"longitude":-51.189724,"fatal":false,"injuried":1,"type":"ABALROAMENTO","address":"422 R VALPARAISO","region":"LESTE","date":"20130130","time":"17:45","day_or_night":"DIA","vehicles":["AUTO"]},{"latitude":-30.082461,"longitude":-51.238685,"fatal":false,"injuried":1,"type":"ABALROAMENTO","address":"923 AV CAPIVARI","region":"SUL","date":"20130201","time":"07:00","day_or_night":"DIA","vehicles":["ONIBUS_URB"]},{"latitude":-30.002318,"longitude":-51.179156,"fatal":false,"injuried":1,"type":"ABALROAMENTO","address":"2501 AV SERTORIO","region":"NORTE","date":"20130201","time":"14:30","day_or_night":"DIA","vehicles":["AUTO"]},{"latitude":-30.024742,"longitude":-51.212622,"fatal":false,"injuried":1,"type":"ABALROAMENTO","address":"545 AV CRISTOVAO COLOMBO","region":"NORTE","date":"20130203","time":"19:44","day_or_night":"NOITE","vehicles":["AUTO"]},{"latitude":-30.033455,"longitude":-51.219415,"fatal":false,"injuried":1,"type":"ABALROAMENTO","address":"110 R ENG LUIZ ENGLERT","region":"CENTRO","date":"20130205","time":"10:45","day_or_night":"DIA","vehicles":["AUTO"]},{"latitude":-30.151672,"longitude":-51.135082,"fatal":true,"injuried":0,"type":"ABALROAMENTO","address":"2545 ESTR JOAO ANTONIO SILVEIRA","region":"SUL","date":"20130205","time":"12:20","day_or_night":"DIA","vehicles":["CAMINHAO"]},{"latitude":-30.057279,"longitude":-51.213751,"fatal":false,"injuried":1,"type":"ABALROAMENTO","address":"1800 R JOSE DE ALENCAR","region":"SUL","date":"20130205","time":"16:10","day_or_night":"DIA","vehicles":["TAXI"]},{"latitude":-30.202317,"longitude":-51.117606,"fatal":false,"injuried":1,"type":"ABALROAMENTO","address":"9865 AV EDGAR PIRES DE CASTRO","region":"SUL","date":"20130205","time":"20:50","day_or_night":"NOITE","vehicles":["CAMINHAO"]},{"latitude":-30.003615,"longitude":-51.137145,"fatal":false,"injuried":1,"type":"ABALROAMENTO","address":"5136 AV ASSIS BRASIL","region":"NORTE","date":"20130208","time":"15:15","day_or_night":"DIA","vehicles":["AUTO"]},{"latitude":-30.1014,"longitude":-51.122902,"fatal":false,"injuried":1,"type":"ABALROAMENTO","address":"3769 ESTR JOAO DE OLIVEIRA REMIAO","region":"LESTE","date":"20130211","time":"19:00","day_or_night":"NOITE","vehicles":["AUTO"]},{"latitude":-30.079391,"longitude":-51.17066,"fatal":false,"injuried":1,"type":"ATROPELAMENTO","address":"129 R ALVARISTO RODRIGUES","region":"LESTE","date":"20130212","time":"16:00","day_or_night":"DIA","vehicles":["MOTO"]},{"latitude":-30.055644,"longitude":-51.215079,"fatal":false,"injuried":1,"type":"ABALROAMENTO","address":"1492 AV DA AZENHA","region":"SUL","date":"20130213","time":"11:28","day_or_night":"DIA","vehicles":["MOTO"]},{"latitude":-30.031189,"longitude":-51.121188,"fatal":false,"injuried":1,"type":"COLISAO","address":"2001 AV MANOEL ELIAS","region":"NORTE","date":"20130213","time":"23:00","day_or_night":"NOITE","vehicles":["MOTO"]},{"latitude":-30.054734,"longitude":-51.21821,"fatal":false,"injuried":1,"type":"ABALROAMENTO","address":"1176 AV ERICO VERISSIMO","region":"SUL","date":"20130216","time":"19:40","day_or_night":"NOITE","vehicles":["ONIBUS_URB"]},{"latitude":-29.989941,"longitude":-51.098497,"fatal":false,"injuried":1,"type":"ABALROAMENTO","address":"1000 AV BERNARDINO SILVEIRA PASTORIZA","region":"NORTE","date":"20130217","time":"14:00","day_or_night":"DIA","vehicles":["AUTO"]},{"latitude":-30.059892,"longitude":-51.167573,"fatal":false,"injuried":1,"type":"ABALROAMENTO","address":"90 R FREI GERMANO","region":"LESTE","date":"20130218","time":"20:30","day_or_night":"NOITE","vehicles":["AUTO"]},{"latitude":-30.041871,"longitude":-51.233337,"fatal":false,"injuried":0,"type":"ABALROAMENTO","address":"AV EDVALDO PEREIRA PAIVA & ESP HELY LOPES MEIRELLES","region":"SUL","date":"20130219","time":"17:50","day_or_night":"DIA","vehicles":["AUTO"]},{"latitude":-30.052799,"longitude":-51.213974,"fatal":false,"injuried":1,"type":"ATROPELAMENTO","address":"1118 AV DA AZENHA","region":"SUL","date":"20130221","time":"15:15","day_or_night":"DIA","vehicles":[]},{"latitude":-30.009964,"longitude":-51.16113,"fatal":false,"injuried":0,"type":"ABALROAMENTO","address":"2606 AV ASSIS BRASIL","region":"NORTE","date":"20130222","time":"11:00","day_or_night":"DIA","vehicles":["LOTACAO"]},{"latitude":-30.028003,"longitude":-51.106867,"fatal":false,"injuried":2,"type":"ABALROAMENTO","address":"1404 AV MARTIM FELIX BERTA","region":"NORTE","date":"20130223","time":"06:45","day_or_night":"DIA","vehicles":["AUTO"]},{"latitude":-30.15306,"longitude":-51.200203,"fatal":false,"injuried":1,"type":"CHOQUE","address":"3339 AV JUCA BATISTA","region":"SUL","date":"20130225","time":"15:45","day_or_night":"DIA","vehicles":["AUTO"]},{"latitude":-30.022757,"longitude":-51.095678,"fatal":false,"injuried":1,"type":"COLISAO","address":"1493 ESTR ANTONIO SEVERINO","region":"NORTE","date":"20130228","time":"06:45","day_or_night":"DIA","vehicles":["AUTO"]},{"latitude":-30.094604,"longitude":-51.225387,"fatal":false,"injuried":0,"type":"ABALROAMENTO","address":"32 AV VICENTE MONTEGGIA","region":"SUL","date":"20130228","time":"08:15","day_or_night":"DIA","vehicles":["AUTO"]},{"latitude":-30.001058,"longitude":-51.151608,"fatal":false,"injuried":1,"type":"ABALROAMENTO","address":"2425 AV LA PAZ","region":"NORTE","date":"20130306","time":"16:00","day_or_night":"DIA","vehicles":["AUTO"]},{"latitude":-30.019381,"longitude":-51.203825,"fatal":false,"injuried":1,"type":"ABALROAMENTO","address":"47 R MARQUES DO POMBAL","region":"LESTE","date":"20130311","time":"16:27","day_or_night":"DIA","vehicles":["AUTO"]},{"latitude":-30.032692,"longitude":-51.174752,"fatal":false,"injuried":1,"type":"ABALROAMENTO","address":"491 R JOAO CAETANO","region":"NORTE","date":"20130311","time":"18:22","day_or_night":"NOITE","vehicles":["AUTO"]},{"latitude":-30.101889,"longitude":-51.248527,"fatal":false,"injuried":1,"type":"ABALROAMENTO","address":"1231 AV COPACABANA","region":"SUL","date":"20130314","time":"07:30","day_or_night":"DIA","vehicles":["AUTO"]},{"latitude":-30.040799,"longitude":-51.212384,"fatal":false,"injuried":1,"type":"QUEDA","address":"R GEN JACINTO OSORIO & R SANTANA","region":"CENTRO","date":"20130315","time":"18:30","day_or_night":"NOITE","vehicles":[]},{"latitude":-30.047061,"longitude":-51.229342,"fatal":false,"injuried":1,"type":"QUEDA","address":"AV IPIRANGA & AV BORGES DE MEDEIROS","region":"CENTRO","date":"20130316","time":"10:30","day_or_night":"DIA","vehicles":[]},{"latitude":-30.093235,"longitude":-51.228981,"fatal":false,"injuried":0,"type":"ABALROAMENTO","address":"R DR CAMPOS VELHO & R FLORINHA","region":"SUL","date":"20130318","time":"10:20","day_or_night":"DIA","vehicles":["AUTO"]},{"latitude":-30.03747,"longitude":-51.211435,"fatal":false,"injuried":1,"type":"ABALROAMENTO","address":"925 AV VENANCIO AIRES","region":"CENTRO","date":"20130318","time":"12:45","day_or_night":"DIA","vehicles":["AUTO"]},{"latitude":-30.0128,"longitude":-51.155533,"fatal":true,"injuried":0,"type":"ABALROAMENTO","address":"240 R VISCONDE DE MACAE","region":"NORTE","date":"20130320","time":"15:30","day_or_night":"DIA","vehicles":["AUTO"]},{"latitude":-29.984733,"longitude":-51.193612,"fatal":false,"injuried":2,"type":"ABALROAMENTO","address":"1301 AV A J RENNER","region":"NORTE","date":"20130320","time":"18:45","day_or_night":"NOITE","vehicles":["MOTO"]},{"latitude":-30.043901,"longitude":-51.206683,"fatal":false,"injuried":0,"type":"ABALROAMENTO","address":"118 R VITORIA","region":"LESTE","date":"20130321","time":"11:45","day_or_night":"DIA","vehicles":["AUTO"]},{"latitude":-30.068131,"longitude":-51.210438,"fatal":false,"injuried":1,"type":"ABALROAMENTO","address":"226 AV NITEROI","region":"SUL","date":"20130321","time":"18:00","day_or_night":"NOITE","vehicles":["AUTO"]},{"latitude":-29.997046,"longitude":-51.149813,"fatal":false,"injuried":1,"type":"ABALROAMENTO","address":"5500 AV SERTORIO","region":"NORTE","date":"20130321","time":"18:25","day_or_night":"NOITE","vehicles":["AUTO"]},{"latitude":-30.023044,"longitude":-51.099298,"fatal":false,"injuried":1,"type":"ABALROAMENTO","address":"R JORGE AMADO & AC H UM LOT WENCESLAU FONTOURA","region":"NORTE","date":"20130322","time":"11:30","day_or_night":"DIA","vehicles":["AUTO"]},{"latitude":-30.181545,"longitude":-51.208981,"fatal":false,"injuried":2,"type":"ABALROAMENTO","address":"3300 AV DA SERRARIA","region":"SUL","date":"20130323","time":"18:00","day_or_night":"NOITE","vehicles":["MOTO"]},{"latitude":-30.024742,"longitude":-51.212622,"fatal":false,"injuried":1,"type":"ABALROAMENTO","address":"545 AV CRISTOVAO COLOMBO","region":"CENTRO","date":"20130324","time":"18:15","day_or_night":"NOITE","vehicles":["AUTO"]},{"latitude":-30.060158,"longitude":-51.190146,"fatal":false,"injuried":1,"type":"ABALROAMENTO","address":"AV BENTO GONCALVES & R PAULINO AZURENHA","region":"LESTE","date":"20130325","time":"14:00","day_or_night":"DIA","vehicles":["AUTO"]},{"latitude":-30.033123,"longitude":-51.151198,"fatal":false,"injuried":1,"type":"ABALROAMENTO","address":"AV SATURNINO DE BRITO & AV IPE","region":"NORTE","date":"20130325","time":"16:45","day_or_night":"DIA","vehicles":["AUTO"]},{"latitude":-30.117324,"longitude":-51.203277,"fatal":false,"injuried":1,"type":"ABALROAMENTO","address":"250 ESTR CRISTIANO KRAEMER","region":"SUL","date":"20130328","time":"10:25","day_or_night":"DIA","vehicles":["CAMINHAO"]},{"latitude":-30.034106,"longitude":-51.228059,"fatal":false,"injuried":1,"type":"ABALROAMENTO","address":"929 R CEL FERNANDO MACHADO","region":"CENTRO","date":"20130329","time":"20:15","day_or_night":"NOITE","vehicles":["AUTO"]},{"latitude":-30.038896,"longitude":-51.22318,"fatal":false,"injuried":0,"type":"ABALROAMENTO","address":"550 R JOSE DO PATROCINIO","region":"CENTRO","date":"20130401","time":"07:00","day_or_night":"DIA","vehicles":["AUTO"]},{"latitude":-30.060782,"longitude":-51.172805,"fatal":false,"injuried":1,"type":"ABALROAMENTO","address":"4314 AV BENTO GONCALVES","region":"LESTE","date":"20130401","time":"14:50","day_or_night":"DIA","vehicles":["AUTO"]},{"latitude":-29.985808,"longitude":-51.133241,"fatal":false,"injuried":1,"type":"ABALROAMENTO","address":"445 AV TOLEDO PIZA","region":"NORTE","date":"20130401","time":"17:10","day_or_night":"DIA","vehicles":["AUTO"]},{"latitude":-30.004522,"longitude":-51.191589,"fatal":false,"injuried":1,"type":"ABALROAMENTO","address":"347 R PEREIRA FRANCO","region":"NORTE","date":"20130402","time":"21:00","day_or_night":"NOITE","vehicles":["MOTO"]},{"latitude":-29.982426,"longitude":-51.112476,"fatal":false,"injuried":1,"type":"ABALROAMENTO","address":"235 AV BERNARDINO SILVEIRA DE AMORIM","region":"NORTE","date":"20130406","time":"00:10","day_or_night":"NOITE","vehicles":["AUTO"]},{"latitude":-30.096923,"longitude":-51.247959,"fatal":false,"injuried":1,"type":"ABALROAMENTO","address":"854 AV WENCESLAU ESCOBAR","region":"SUL","date":"20130411","time":"08:00","day_or_night":"DIA","vehicles":["AUTO"]},{"latitude":-30.032147,"longitude":-51.217224,"fatal":false,"injuried":1,"type":"ABALROAMENTO","address":"AV OSVALDO ARANHA & R DR BARROS CASSAL","region":"CENTRO","date":"20130413","time":"18:40","day_or_night":"NOITE","vehicles":["AUTO"]},{"latitude":-30.130697,"longitude":-51.235383,"fatal":false,"injuried":1,"type":"ABALROAMENTO","address":"2363 AV CEL MARCOS","region":"SUL","date":"20130413","time":"18:50","day_or_night":"NOITE","vehicles":["AUTO"]},{"latitude":-30.084619,"longitude":-51.247448,"fatal":false,"injuried":0,"type":"ABALROAMENTO","address":"500 AV DIARIO DE NOTICIAS","region":"SUL","date":"20130414","time":"16:04","day_or_night":"DIA","vehicles":["AUTO"]},{"latitude":-30.116588,"longitude":-51.205079,"fatal":false,"injuried":1,"type":"COLISAO","address":"93 ESTR CRISTIANO KRAEMER","region":"SUL","date":"20130414","time":"19:15","day_or_night":"NOITE","vehicles":["AUTO"]},{"latitude":-30.038376,"longitude":-51.200091,"fatal":false,"injuried":1,"type":"ABALROAMENTO","address":"810 AV PROTASIO ALVES","region":"LESTE","date":"20130415","time":"10:50","day_or_night":"DIA","vehicles":["TAXI"]},{"latitude":-30.038526,"longitude":-51.202491,"fatal":false,"injuried":2,"type":"ATROPELAMENTO","address":"81 R DR ALCIDES CRUZ","region":"LESTE","date":"20130417","time":"14:30","day_or_night":"DIA","vehicles":[]},{"latitude":-30.047192,"longitude":-51.227982,"fatal":false,"injuried":1,"type":"ABALROAMENTO","address":"191 AV IPIRANGA","region":"CENTRO","date":"20130418","time":"15:20","day_or_night":"DIA","vehicles":["AUTO"]},{"latitude":-30.121989,"longitude":-51.252018,"fatal":false,"injuried":1,"type":"ABALROAMENTO","address":"419 AV CEL MARCOS","region":"SUL","date":"20130421","time":"19:15","day_or_night":"NOITE","vehicles":["AUTO"]},{"latitude":-30.210568,"longitude":-51.181303,"fatal":false,"injuried":1,"type":"COLISAO","address":"794 AV HEITOR VIEIRA","region":"SUL","date":"20130424","time":"12:20","day_or_night":"DIA","vehicles":["AUTO"]},{"latitude":-30.022213,"longitude":-51.208104,"fatal":false,"injuried":1,"type":"ABALROAMENTO","address":"243 R GEN NETO","region":"LESTE","date":"20130426","time":"10:30","day_or_night":"DIA","vehicles":["AUTO"]},{"latitude":-30.056353,"longitude":-51.227836,"fatal":false,"injuried":1,"type":"ABALROAMENTO","address":"203 R RAFAEL SAADI","region":"SUL","date":"20130426","time":"10:33","day_or_night":"DIA","vehicles":["AUTO"]},{"latitude":-30.08305,"longitude":-51.238773,"fatal":true,"injuried":0,"type":"COLISAO","address":"538 R CURUPAITI","region":"SUL","date":"20130426","time":"13:30","day_or_night":"DIA","vehicles":[]},{"latitude":-30.030649,"longitude":-51.154586,"fatal":false,"injuried":1,"type":"ABALROAMENTO","address":"15 AV IPE","region":"LESTE","date":"20130427","time":"17:38","day_or_night":"DIA","vehicles":["AUTO"]},{"latitude":-30.07392,"longitude":-51.135248,"fatal":false,"injuried":1,"type":"ABALROAMENTO","address":"8287 AV BENTO GONCALVES","region":"LESTE","date":"20130430","time":"09:30","day_or_night":"DIA","vehicles":["AUTO"]},{"latitude":-30.202295,"longitude":-51.141066,"fatal":false,"injuried":1,"type":"ABALROAMENTO","address":"2091 ESTR JACQUES DA ROSA","region":"SUL","date":"20130504","time":"19:00","day_or_night":"NOITE","vehicles":["AUTO"]},{"latitude":-30.180006,"longitude":-51.220291,"fatal":false,"injuried":2,"type":"ABALROAMENTO","address":"510 BC PONTA GROSSA","region":"SUL","date":"20130509","time":"18:50","day_or_night":"NOITE","vehicles":["MOTO"]},{"latitude":-30.070079,"longitude":-51.223997,"fatal":false,"injuried":1,"type":"ABALROAMENTO","address":"160 R CAIXA ECONOMICA","region":"SUL","date":"20130511","time":"14:45","day_or_night":"DIA","vehicles":["AUTO"]},{"latitude":-30.018558,"longitude":-51.147465,"fatal":false,"injuried":1,"type":"ABALROAMENTO","address":"940 AV BENNO MENTZ","region":"NORTE","date":"20130513","time":"09:45","day_or_night":"DIA","vehicles":["AUTO"]},{"latitude":-30.0708,"longitude":-51.139911,"fatal":false,"injuried":1,"type":"COLISAO","address":"7712 AV BENTO GONCALVES","region":"LESTE","date":"20130514","time":"08:45","day_or_night":"DIA","vehicles":["AUTO"]},{"latitude":-30.025931,"longitude":-51.214545,"fatal":false,"injuried":0,"type":"ABALROAMENTO","address":"302 AV CRISTOVAO COLOMBO","region":"CENTRO","date":"20130515","time":"14:00","day_or_night":"DIA","vehicles":["AUTO"]},{"latitude":-30.03615,"longitude":-51.207732,"fatal":false,"injuried":1,"type":"ABALROAMENTO","address":"42 AV PROTASIO ALVES","region":"LESTE","date":"20130517","time":"13:45","day_or_night":"DIA","vehicles":["LOTACAO"]},{"latitude":-30.039857,"longitude":-51.216641,"fatal":false,"injuried":1,"type":"ABALROAMENTO","address":"1070 AV JOAO PESSOA","region":"CENTRO","date":"20130523","time":"19:00","day_or_night":"NOITE","vehicles":["ONIBUS_URB"]},{"latitude":-30.039857,"longitude":-51.216641,"fatal":false,"injuried":1,"type":"ABALROAMENTO","address":"1070 AV JOAO PESSOA","region":"CENTRO","date":"20130523","time":"19:00","day_or_night":"NOITE","vehicles":["ONIBUS_URB"]},{"latitude":-30.141796,"longitude":-51.217517,"fatal":false,"injuried":1,"type":"ABALROAMENTO","address":"1060 AV JUCA BATISTA","region":"SUL","date":"20130525","time":"16:35","day_or_night":"DIA","vehicles":["AUTO"]},{"latitude":-30.075397,"longitude":-51.243608,"fatal":false,"injuried":0,"type":"COLISAO","address":"1774 AV PADRE CACIQUE","region":"SUL","date":"20130528","time":"15:20","day_or_night":"DIA","vehicles":["AUTO"]},{"latitude":-29.989871,"longitude":-51.125534,"fatal":false,"injuried":1,"type":"ABALROAMENTO","address":"7013 AV ASSIS BRASIL","region":"NORTE","date":"20130531","time":"15:00","day_or_night":"DIA","vehicles":["AUTO"]},{"latitude":-30.036131,"longitude":-51.209163,"fatal":false,"injuried":1,"type":"ATROPELAMENTO","address":"1195 AV VENANCIO AIRES","region":"CENTRO","date":"20130605","time":"10:20","day_or_night":"DIA","vehicles":[]},{"latitude":-30.146142,"longitude":-51.209609,"fatal":false,"injuried":1,"type":"ABALROAMENTO","address":"17 R CIRINO PRUNES","region":"SUL","date":"20130605","time":"17:40","day_or_night":"DIA","vehicles":["AUTO"]},{"latitude":-30.04058,"longitude":-51.198207,"fatal":false,"injuried":1,"type":"ATROPELAMENTO","address":"693 R DONA EUGENIA","region":"LESTE","date":"20130605","time":"18:22","day_or_night":"NOITE","vehicles":["AUTO"]},{"latitude":-30.045663,"longitude":-51.208901,"fatal":false,"injuried":1,"type":"ABALROAMENTO","address":"978 R SANTANA","region":"LESTE","date":"20130608","time":"20:00","day_or_night":"NOITE","vehicles":["AUTO"]},{"latitude":-29.999218,"longitude":-51.132108,"fatal":false,"injuried":1,"type":"QUEDA","address":"8000 AV SERTORIO","region":"NORTE","date":"20130610","time":"17:45","day_or_night":"DIA","vehicles":[]},{"latitude":-29.99915,"longitude":-51.198534,"fatal":false,"injuried":1,"type":"CHOQUE","address":"3775 AV FARRAPOS","region":"NORTE","date":"20130611","time":"11:40","day_or_night":"DIA","vehicles":["AUTO"]},{"latitude":-30.152827,"longitude":-51.181488,"fatal":false,"injuried":2,"type":"ABALROAMENTO","address":"1311 ESTR GEDEON LEITE","region":"SUL","date":"20130615","time":"20:58","day_or_night":"NOITE","vehicles":["MOTO"]},{"latitude":-30.086587,"longitude":-51.24107,"fatal":false,"injuried":1,"type":"ATROPELAMENTO","address":"R INHANDUI & AV ICARAI","region":"SUL","date":"20130618","time":"01:30","day_or_night":"NOITE","vehicles":["AUTO"]},{"latitude":-30.012373,"longitude":-51.098341,"fatal":false,"injuried":1,"type":"ABALROAMENTO","address":"4755 AV BALTAZAR DE OLIVEIRA GARCIA","region":"NORTE","date":"20130618","time":"22:20","day_or_night":"NOITE","vehicles":["AUTO"]},{"latitude":-30.039314,"longitude":-51.196743,"fatal":false,"injuried":1,"type":"ABALROAMENTO","address":"1217 AV PROTASIO ALVES","region":"LESTE","date":"20130620","time":"04:50","day_or_night":"NOITE","vehicles":["AUTO"]},{"latitude":-30.171762,"longitude":-51.17858,"fatal":false,"injuried":2,"type":"ABALROAMENTO","address":"6543 AV JUCA BATISTA","region":"SUL","date":"20130625","time":"06:57","day_or_night":"DIA","vehicles":["MOTO"]},{"latitude":-30.139486,"longitude":-51.219817,"fatal":false,"injuried":1,"type":"ABALROAMENTO","address":"730 AV JUCA BATISTA","region":"SUL","date":"20130625","time":"18:50","day_or_night":"NOITE","vehicles":["AUTO"]},{"latitude":-29.991995,"longitude":-51.196012,"fatal":false,"injuried":1,"type":"ABALROAMENTO","address":"451 AV A J RENNER","region":"NORTE","date":"20130627","time":"13:00","day_or_night":"DIA","vehicles":["CAMINHAO"]},{"latitude":-30.055128,"longitude":-51.16949,"fatal":false,"injuried":1,"type":"ABALROAMENTO","address":"6681 AV IPIRANGA","region":"LESTE","date":"20130703","time":"21:00","day_or_night":"NOITE","vehicles":["AUTO"]},{"latitude":-30.113195,"longitude":-51.23803,"fatal":false,"injuried":1,"type":"ABALROAMENTO","address":"2454 R BAZILIO PELLIN FILHO","region":"SUL","date":"20130705","time":"13:40","day_or_night":"DIA","vehicles":["AUTO"]},{"latitude":-30.102085,"longitude":-51.230678,"fatal":false,"injuried":1,"type":"ABALROAMENTO","address":"2869 AV DA CAVALHADA","region":"SUL","date":"20130707","time":"00:35","day_or_night":"NOITE","vehicles":["AUTO"]},{"latitude":-30.230819,"longitude":-51.060565,"fatal":false,"injuried":1,"type":"ATROPELAMENTO","address":"5125 ESTR DO VAREJAO","region":"SUL","date":"20130708","time":"20:22","day_or_night":"NOITE","vehicles":["AUTO"]},{"latitude":-30.054203,"longitude":-51.147306,"fatal":false,"injuried":1,"type":"COLISAO","address":"1515 AV ANTONIO CARVALHO","region":"LESTE","date":"20130715","time":"06:40","day_or_night":"DIA","vehicles":["ONIBUS_URB"]},{"latitude":-30.030011,"longitude":-51.235137,"fatal":false,"injuried":1,"type":"ABALROAMENTO","address":"522 R SETE DE SETEMBRO","region":"CENTRO","date":"20130716","time":"12:15","day_or_night":"DIA","vehicles":["AUTO"]},{"latitude":-29.993342,"longitude":-51.132158,"fatal":false,"injuried":1,"type":"ABALROAMENTO","address":"182 R XAVIER DE CARVALHO","region":"NORTE","date":"20130716","time":"18:20","day_or_night":"NOITE","vehicles":["AUTO"]},{"latitude":-30.161961,"longitude":-51.150266,"fatal":false,"injuried":1,"type":"ABALROAMENTO","address":"560 ESTR JOAO ANTONIO SILVEIRA","region":"SUL","date":"20130717","time":"17:00","day_or_night":"DIA","vehicles":["AUTO"]},{"latitude":-30.097242,"longitude":-51.242677,"fatal":false,"injuried":1,"type":"ABALROAMENTO","address":"520 R CEL CLAUDINO","region":"SUL","date":"20130717","time":"18:59","day_or_night":"NOITE","vehicles":["AUTO"]},{"latitude":-30.01274,"longitude":-51.166141,"fatal":false,"injuried":1,"type":"ABALROAMENTO","address":"706 AV GRECIA","region":"NORTE","date":"20130718","time":"08:55","day_or_night":"DIA","vehicles":["AUTO"]},{"latitude":-29.998652,"longitude":-51.132678,"fatal":false,"injuried":1,"type":"ABALROAMENTO","address":"5862 AV ASSIS BRASIL","region":"NORTE","date":"20130719","time":"18:05","day_or_night":"NOITE","vehicles":["MOTO"]},{"latitude":-30.061318,"longitude":-51.164299,"fatal":false,"injuried":1,"type":"ABALROAMENTO","address":"5129 AV BENTO GONCALVES","region":"LESTE","date":"20130724","time":"18:50","day_or_night":"NOITE","vehicles":["AUTO"]},{"latitude":-30.041806,"longitude":-51.213345,"fatal":false,"injuried":1,"type":"ABALROAMENTO","address":"142 AV JERONIMO DE ORNELAS","region":"LESTE","date":"20130725","time":"18:10","day_or_night":"NOITE","vehicles":["MOTO"]},{"latitude":-30.148873,"longitude":-51.147054,"fatal":false,"injuried":1,"type":"ABALROAMENTO","address":"3773 AV ECON NILO WULFF","region":"SUL","date":"20130727","time":"20:55","day_or_night":"NOITE","vehicles":["AUTO"]},{"latitude":-29.989654,"longitude":-51.195194,"fatal":false,"injuried":1,"type":"COLISAO","address":"773 AV A J RENNER","region":"NORTE","date":"20130728","time":"06:00","day_or_night":"NOITE","vehicles":["AUTO"]},{"latitude":-30.0731,"longitude":-51.202595,"fatal":false,"injuried":1,"type":"QUEDA","address":"AV PROF OSCAR PEREIRA & AV CEL APARICIO BORGES","region":"SUL","date":"20130730","time":"11:30","day_or_night":"DIA","vehicles":[]},{"latitude":-30.041563,"longitude":-51.222206,"fatal":false,"injuried":1,"type":"ABALROAMENTO","address":"385 R JOAQUIM NABUCO","region":"CENTRO","date":"20130731","time":"19:15","day_or_night":"NOITE","vehicles":["AUTO"]},{"latitude":-30.112363,"longitude":-51.109435,"fatal":false,"injuried":1,"type":"ABALROAMENTO","address":"5730 ESTR JOAO DE OLIVEIRA REMIAO","region":"LESTE","date":"20130802","time":"10:10","day_or_night":"DIA","vehicles":["ONIBUS_URB"]},{"latitude":-30.156868,"longitude":-51.144333,"fatal":true,"injuried":0,"type":"ABALROAMENTO","address":"50 R ANTONIO ONOFRE DA SILVEIRA","region":"SUL","date":"20130804","time":"20:20","day_or_night":"NOITE","vehicles":["ONIBUS_URB"]},{"latitude":-30.041679,"longitude":-51.228749,"fatal":false,"injuried":1,"type":"ABALROAMENTO","address":"1565 AV BORGES DE MEDEIROS","region":"CENTRO","date":"20130812","time":"15:50","day_or_night":"DIA","vehicles":["AUTO"]},{"latitude":-30.106691,"longitude":-51.227532,"fatal":false,"injuried":1,"type":"COLISAO","address":"3623 AV DA CAVALHADA","region":"SUL","date":"20130815","time":"09:40","day_or_night":"DIA","vehicles":["AUTO"]},{"latitude":-30.135296,"longitude":-51.195548,"fatal":false,"injuried":1,"type":"COLISAO","address":"2450 ESTR CRISTIANO KRAEMER","region":"SUL","date":"20130815","time":"13:00","day_or_night":"DIA","vehicles":["AUTO"]},{"latitude":-29.991264,"longitude":-51.195794,"fatal":false,"injuried":1,"type":"COLISAO","address":"AV A J RENNER & R DONA TEODORA","region":"NORTE","date":"20130817","time":"09:00","day_or_night":"DIA","vehicles":["AUTO"]},{"latitude":-30.083488,"longitude":-51.238838,"fatal":false,"injuried":1,"type":"ABALROAMENTO","address":"582 R CURUPAITI","region":"SUL","date":"20130822","time":"07:10","day_or_night":"DIA","vehicles":["AUTO"]},{"latitude":-30.037432,"longitude":-51.203006,"fatal":false,"injuried":1,"type":"ABALROAMENTO","address":"525 AV PROTASIO ALVES","region":"LESTE","date":"20130826","time":"21:20","day_or_night":"NOITE","vehicles":["AUTO"]},{"latitude":-30.112196,"longitude":-51.109586,"fatal":false,"injuried":1,"type":"ABALROAMENTO","address":"5705 ESTR JOAO DE OLIVEIRA REMIAO","region":"LESTE","date":"20130829","time":"21:45","day_or_night":"NOITE","vehicles":["AUTO"]},{"latitude":-30.045868,"longitude":-51.212026,"fatal":false,"injuried":1,"type":"QUEDA","address":"AV IPIRANGA & AV JOAO PESSOA","region":"CENTRO","date":"20130830","time":"17:15","day_or_night":"DIA","vehicles":[]},{"latitude":-30.032598,"longitude":-51.222306,"fatal":false,"injuried":1,"type":"QUEDA","address":"R AVAI & AV JOAO PESSOA","region":"CENTRO","date":"20130904","time":"18:00","day_or_night":"NOITE","vehicles":[]},{"latitude":-30.150349,"longitude":-51.138685,"fatal":false,"injuried":1,"type":"CHOQUE","address":"989 R SILVIO R SIRANGELO","region":"SUL","date":"20130905","time":"11:00","day_or_night":"DIA","vehicles":["AUTO"]},{"latitude":-30.030778,"longitude":-51.121043,"fatal":false,"injuried":1,"type":"ABALROAMENTO","address":"1800 AV MANOEL ELIAS","region":"NORTE","date":"20130909","time":"20:00","day_or_night":"NOITE","vehicles":["AUTO"]},{"latitude":-30.041164,"longitude":-51.204052,"fatal":false,"injuried":0,"type":"ABALROAMENTO","address":"453 R SILVA SO","region":"LESTE","date":"20130913","time":"07:30","day_or_night":"DIA","vehicles":["AUTO"]},{"latitude":-30.019312,"longitude":-51.11963,"fatal":true,"injuried":0,"type":"COLISAO","address":"486 AV MANOEL ELIAS","region":"NORTE","date":"20130913","time":"17:55","day_or_night":"DIA","vehicles":["AUTO"]},{"latitude":-30.015449,"longitude":-51.105698,"fatal":true,"injuried":0,"type":"COLISAO","address":"4005 AV BALTAZAR DE OLIVEIRA GARCIA","region":"NORTE","date":"20130914","time":"06:00","day_or_night":"NOITE","vehicles":["AUTO"]},{"latitude":-30.021924,"longitude":-51.161914,"fatal":false,"injuried":1,"type":"ABALROAMENTO","address":"100 AV TULIO DE ROSE","region":"NORTE","date":"20130915","time":"15:06","day_or_night":"DIA","vehicles":["MOTO"]},{"latitude":-30.032107,"longitude":-51.210899,"fatal":false,"injuried":1,"type":"ABALROAMENTO","address":"401 R FERNANDES VIEIRA","region":"LESTE","date":"20130917","time":"13:55","day_or_night":"DIA","vehicles":["TAXI"]},{"latitude":-30.051187,"longitude":-51.206567,"fatal":false,"injuried":1,"type":"ABALROAMENTO","address":"AV BENTO GONCALVES & R GUILHERME SCHELL","region":"LESTE","date":"20130919","time":"13:15","day_or_night":"DIA","vehicles":["ONIBUS_MET"]},{"latitude":-29.987998,"longitude":-51.199706,"fatal":false,"injuried":1,"type":"ABALROAMENTO","address":"749 R FREDERICO MENTZ","region":"NORTE","date":"20130919","time":"17:00","day_or_night":"DIA","vehicles":["AUTO"]},{"latitude":-30.207843,"longitude":-51.111982,"fatal":false,"injuried":2,"type":"ABALROAMENTO","address":"10700 AV EDGAR PIRES DE CASTRO","region":"SUL","date":"20130930","time":"10:45","day_or_night":"DIA","vehicles":["MOTO"]},{"latitude":-29.990094,"longitude":-51.101338,"fatal":false,"injuried":1,"type":"ABALROAMENTO","address":"710 AV BERNARDINO SILVEIRA PASTORIZA","region":"NORTE","date":"20131001","time":"06:50","day_or_night":"DIA","vehicles":["ONIBUS_MET"]},{"latitude":-30.037953,"longitude":-51.191833,"fatal":false,"injuried":1,"type":"ABALROAMENTO","address":"215 R JAIME TELES","region":"LESTE","date":"20131002","time":"16:38","day_or_night":"DIA","vehicles":["AUTO"]},{"latitude":-30.023968,"longitude":-51.214768,"fatal":false,"injuried":2,"type":"ATROPELAMENTO","address":"551 AV FARRAPOS","region":"NORTE","date":"20131003","time":"14:15","day_or_night":"DIA","vehicles":[]},{"latitude":-30.063568,"longitude":-51.150475,"fatal":false,"injuried":1,"type":"ABALROAMENTO","address":"AV IPIRANGA & AV ANTONIO CARVALHO","region":"LESTE","date":"20131005","time":"14:00","day_or_night":"DIA","vehicles":["AUTO"]},{"latitude":-30.058736,"longitude":-51.157315,"fatal":false,"injuried":1,"type":"COLISAO","address":"410 AV ELIAS CIRNE LIMA","region":"LESTE","date":"20131007","time":"13:30","day_or_night":"DIA","vehicles":["AUTO"]},{"latitude":-30.00136,"longitude":-51.102703,"fatal":false,"injuried":1,"type":"ABALROAMENTO","address":"2565 AV BERNARDINO SILVEIRA DE AMORIM","region":"NORTE","date":"20131009","time":"08:10","day_or_night":"DIA","vehicles":["AUTO"]},{"latitude":-30.002024,"longitude":-51.169422,"fatal":false,"injuried":1,"type":"ABALROAMENTO","address":"3577 AV SERTORIO","region":"NORTE","date":"20131014","time":"12:55","day_or_night":"DIA","vehicles":["AUTO"]},{"latitude":-30.054644,"longitude":-51.164908,"fatal":false,"injuried":1,"type":"ABALROAMENTO","address":"7328 AV IPIRANGA","region":"LESTE","date":"20131014","time":"17:28","day_or_night":"DIA","vehicles":["AUTO"]},{"latitude":-30.031753,"longitude":-51.205674,"fatal":false,"injuried":2,"type":"ABALROAMENTO","address":"516 R MIGUEL TOSTES","region":"LESTE","date":"20131016","time":"12:15","day_or_night":"DIA","vehicles":["MOTO"]},{"latitude":-30.164562,"longitude":-51.154257,"fatal":false,"injuried":1,"type":"ABALROAMENTO","address":"90 ESTR JOAO ANTONIO SILVEIRA","region":"SUL","date":"20131016","time":"19:40","day_or_night":"NOITE","vehicles":["AUTO"]},{"latitude":-30.061205,"longitude":-51.174903,"fatal":false,"injuried":1,"type":"CHOQUE","address":"4118 AV BENTO GONCALVES","region":"LESTE","date":"20131018","time":"08:15","day_or_night":"DIA","vehicles":[]},{"latitude":-30.027343,"longitude":-51.169959,"fatal":false,"injuried":1,"type":"ABALROAMENTO","address":"2245 AV DR NILO PECANHA","region":"LESTE","date":"20131018","time":"11:40","day_or_night":"DIA","vehicles":["MOTO"]},{"latitude":-30.068713,"longitude":-51.197205,"fatal":false,"injuried":1,"type":"ABALROAMENTO","address":"1207 R PAULINO AZURENHA","region":"SUL","date":"20131018","time":"17:45","day_or_night":"DIA","vehicles":["AUTO"]},{"latitude":-30.056427,"longitude":-51.185897,"fatal":false,"injuried":2,"type":"ABALROAMENTO","address":"5229 AV IPIRANGA","region":"LESTE","date":"20131020","time":"18:45","day_or_night":"NOITE","vehicles":["MOTO"]},{"latitude":-30.041051,"longitude":-51.221071,"fatal":false,"injuried":1,"type":"ABALROAMENTO","address":"855 R JOSE DO PATROCINIO","region":"CENTRO","date":"20131025","time":"15:26","day_or_night":"DIA","vehicles":["AUTO"]},{"latitude":-30.049031,"longitude":-51.220078,"fatal":false,"injuried":1,"type":"COLISAO","address":"R MARCILIO DIAS & R GONCALVES DIAS","region":"SUL","date":"20131029","time":"07:50","day_or_night":"DIA","vehicles":["AUTO"]},{"latitude":-30.047017,"longitude":-51.223905,"fatal":false,"injuried":1,"type":"ABALROAMENTO","address":"AV IPIRANGA & R MUCIO TEIXEIRA","region":"LESTE","date":"20131030","time":"07:45","day_or_night":"DIA","vehicles":["MOTO"]},{"latitude":-30.054283,"longitude":-51.214606,"fatal":false,"injuried":0,"type":"COLISAO","address":"R BOTAFOGO & AV DA AZENHA","region":"SUL","date":"20131030","time":"22:40","day_or_night":"NOITE","vehicles":["TAXI"]},{"latitude":-29.978107,"longitude":-51.114483,"fatal":false,"injuried":2,"type":"ABALROAMENTO","address":"8787 AV ASSIS BRASIL","region":"NORTE","date":"20131031","time":"00:50","day_or_night":"NOITE","vehicles":["MOTO"]},{"latitude":-30.142687,"longitude":-51.21613,"fatal":false,"injuried":1,"type":"ABALROAMENTO","address":"AV JUCA BATISTA & AV DA SERRARIA","region":"SUL","date":"20131031","time":"07:50","day_or_night":"DIA","vehicles":["AUTO"]},{"latitude":-30.041529,"longitude":-51.167472,"fatal":false,"injuried":1,"type":"ABALROAMENTO","address":"460 AV JORDAO","region":"LESTE","date":"20131101","time":"18:40","day_or_night":"NOITE","vehicles":["AUTO"]},{"latitude":-29.99051,"longitude":-51.109154,"fatal":false,"injuried":1,"type":"ABALROAMENTO","address":"1928 AV FRANCISCO SILVEIRA BITENCOURT","region":"NORTE","date":"20131102","time":"12:30","day_or_night":"DIA","vehicles":["AUTO"]},{"latitude":-30.071498,"longitude":-51.221932,"fatal":false,"injuried":1,"type":"ABALROAMENTO","address":"360 R BANCO INGLES","region":"SUL","date":"20131102","time":"20:05","day_or_night":"NOITE","vehicles":["AUTO"]},{"latitude":-30.03764,"longitude":-51.224538,"fatal":false,"injuried":1,"type":"ABALROAMENTO","address":"R JOSE DO PATROCINIO & R SARMENTO LEITE","region":"CENTRO","date":"20131105","time":"13:25","day_or_night":"DIA","vehicles":["AUTO"]},{"latitude":-30.047925,"longitude":-51.213335,"fatal":false,"injuried":0,"type":"ABALROAMENTO","address":"R PROF FREITAS E CASTRO & AV DA AZENHA","region":"SUL","date":"20131107","time":"17:13","day_or_night":"DIA","vehicles":["AUTO"]},{"latitude":-30.049042,"longitude":-51.186831,"fatal":false,"injuried":1,"type":"ABALROAMENTO","address":"300 R FELIZARDO","region":"LESTE","date":"20131108","time":"19:50","day_or_night":"NOITE","vehicles":["AUTO"]},{"latitude":-29.980543,"longitude":-51.13356,"fatal":false,"injuried":1,"type":"CHOQUE","address":"207 AV SOUZA MELO","region":"NORTE","date":"20131114","time":"18:00","day_or_night":"NOITE","vehicles":["AUTO"]},{"latitude":-30.015374,"longitude":-51.105299,"fatal":true,"injuried":1,"type":"CHOQUE","address":"4000 AV BALTAZAR DE OLIVEIRA GARCIA","region":"NORTE","date":"20131114","time":"22:30","day_or_night":"NOITE","vehicles":["MOTO"]},{"latitude":-30.050022,"longitude":-51.20586,"fatal":false,"injuried":1,"type":"ABALROAMENTO","address":"R VICENTE DA FONTOURA & R SANTANA","region":"LESTE","date":"20131115","time":"14:15","day_or_night":"DIA","vehicles":["ONIBUS_INT"]},{"latitude":-30.021453,"longitude":-51.21228,"fatal":false,"injuried":1,"type":"ABALROAMENTO","address":"859 AV FARRAPOS","region":"NORTE","date":"20131116","time":"10:30","day_or_night":"DIA","vehicles":["AUTO"]},{"latitude":-29.997653,"longitude":-51.097855,"fatal":false,"injuried":1,"type":"ABALROAMENTO","address":"610 R ARGENTINA FLORES DA ROSA","region":"NORTE","date":"20131116","time":"22:30","day_or_night":"NOITE","vehicles":["AUTO"]},{"latitude":-30.166894,"longitude":-51.153572,"fatal":false,"injuried":1,"type":"ABALROAMENTO","address":"27 R PROF ASCANIO ILO FREDIANI","region":"SUL","date":"20131117","time":"19:51","day_or_night":"NOITE","vehicles":["AUTO"]},{"latitude":-30.035554,"longitude":-51.226783,"fatal":false,"injuried":1,"type":"ABALROAMENTO","address":"52 R JOSE DO PATROCINIO","region":"CENTRO","date":"20131118","time":"15:00","day_or_night":"DIA","vehicles":["AUTO"]},{"latitude":-30.007713,"longitude":-51.177619,"fatal":false,"injuried":2,"type":"ABALROAMENTO","address":"811 AV ASSIS BRASIL","region":"NORTE","date":"20131119","time":"06:45","day_or_night":"DIA","vehicles":["MOTO"]},{"latitude":-30.164943,"longitude":-51.143209,"fatal":false,"injuried":1,"type":"EVENTUAL","address":"72 R SANDRA BREA","region":"SUL","date":"20131127","time":"18:50","day_or_night":"NOITE","vehicles":["AUTO"]},{"latitude":-30.068395,"longitude":-51.204884,"fatal":false,"injuried":1,"type":"ABALROAMENTO","address":"2153 AV PROF OSCAR PEREIRA","region":"SUL","date":"20131128","time":"17:45","day_or_night":"DIA","vehicles":["AUTO"]},{"latitude":-30.047009,"longitude":-51.213558,"fatal":false,"injuried":1,"type":"ATROPELAMENTO","address":"485 AV DA AZENHA","region":"SUL","date":"20131129","time":"11:01","day_or_night":"DIA","vehicles":["AUTO"]},{"latitude":-30.154359,"longitude":-51.140863,"fatal":false,"injuried":1,"type":"ABALROAMENTO","address":"1770 ESTR JOAO ANTONIO SILVEIRA","region":"SUL","date":"20131206","time":"07:40","day_or_night":"DIA","vehicles":["AUTO"]},{"latitude":-30.00947,"longitude":-51.138271,"fatal":false,"injuried":1,"type":"COLISAO","address":"618 AV BALTAZAR DE OLIVEIRA GARCIA","region":"NORTE","date":"20131207","time":"21:57","day_or_night":"NOITE","vehicles":["AUTO"]},{"latitude":-29.975716,"longitude":-51.191483,"fatal":false,"injuried":1,"type":"ABALROAMENTO","address":"700 AV PADRE LEOPOLDO BRENTANO","region":"NORTE","date":"20131209","time":"16:20","day_or_night":"DIA","vehicles":["ONIBUS_URB"]},{"latitude":-30.042208,"longitude":-51.203917,"fatal":false,"injuried":0,"type":"COLISAO","address":"AV IPIRANGA & R SILVA SO","region":"LESTE","date":"20131212","time":"22:10","day_or_night":"NOITE","vehicles":["AUTO"]},{"latitude":-30.047061,"longitude":-51.229342,"fatal":false,"injuried":1,"type":"ABALROAMENTO","address":"AV IPIRANGA & AV BORGES DE MEDEIROS","region":"CENTRO","date":"20131214","time":"19:55","day_or_night":"NOITE","vehicles":["AUTO"]},{"latitude":-30.026473,"longitude":-51.181773,"fatal":false,"injuried":0,"type":"ABALROAMENTO","address":"R FURRIEL LUIZ ANTONIO DE VARGAS & AV CARLOS GOMES","region":"LESTE","date":"20131215","time":"09:10","day_or_night":"DIA","vehicles":["AUTO"]},{"latitude":-30.062821,"longitude":-51.168781,"fatal":false,"injuried":1,"type":"ABALROAMENTO","address":"180 R SALDANHA DA GAMA","region":"LESTE","date":"20131215","time":"18:45","day_or_night":"NOITE","vehicles":["AUTO"]},{"latitude":-30.048461,"longitude":-51.218107,"fatal":false,"injuried":1,"type":"ABALROAMENTO","address":"452 AV ERICO VERISSIMO","region":"SUL","date":"20131217","time":"07:10","day_or_night":"DIA","vehicles":["AUTO"]},{"latitude":-30.024665,"longitude":-51.21261,"fatal":false,"injuried":1,"type":"ABALROAMENTO","address":"526 AV CRISTOVAO COLOMBO","region":"LESTE","date":"20131217","time":"17:30","day_or_night":"DIA","vehicles":["TAXI"]},{"latitude":-30.027622,"longitude":-51.224288,"fatal":false,"injuried":1,"type":"ABALROAMENTO","address":"236 AV OTAVIO ROCHA","region":"CENTRO","date":"20131218","time":"12:40","day_or_night":"DIA","vehicles":["TAXI"]},{"latitude":-30.039078,"longitude":-51.197689,"fatal":false,"injuried":1,"type":"ABALROAMENTO","address":"1044 AV PROTASIO ALVES","region":"LESTE","date":"20131218","time":"17:45","day_or_night":"DIA","vehicles":["AUTO"]},{"latitude":-30.070075,"longitude":-51.153521,"fatal":false,"injuried":1,"type":"ATROPELAMENTO","address":"307 R PITORESCA","region":"LESTE","date":"20131219","time":"16:00","day_or_night":"DIA","vehicles":["AUTO"]},{"latitude":-30.178469,"longitude":-51.180051,"fatal":false,"injuried":2,"type":"ATROPELAMENTO","address":"400 ESTR RETIRO DA PONTA GROSSA","region":"SUL","date":"20131219","time":"19:00","day_or_night":"NOITE","vehicles":["MOTO"]},{"latitude":-30.212959,"longitude":-51.127374,"fatal":true,"injuried":0,"type":"COLISAO","address":"5300 AV DO LAMI","region":"SUL","date":"20131220","time":"08:00","day_or_night":"DIA","vehicles":["AUTO"]},{"latitude":-30.052466,"longitude":-51.192435,"fatal":false,"injuried":1,"type":"ABALROAMENTO","address":"4610 AV IPIRANGA","region":"LESTE","date":"20131222","time":"09:00","day_or_night":"DIA","vehicles":["AUTO"]},{"latitude":-30.178909,"longitude":-51.182842,"fatal":false,"injuried":3,"type":"COLISAO","address":"707 ESTR RETIRO DA PONTA GROSSA","region":"SUL","date":"20131227","time":"11:00","day_or_night":"DIA","vehicles":["MOTO"]},{"latitude":-30.062858,"longitude":-51.197809,"fatal":false,"injuried":1,"type":"CHOQUE","address":"46 R NOSSA SENHORA DO BRASIL","region":"SUL","date":"20131227","time":"11:30","day_or_night":"DIA","vehicles":["AUTO"]},{"latitude":-30.009109,"longitude":-51.151146,"fatal":false,"injuried":1,"type":"ATROPELAMENTO","address":"60 AV PANAMERICANA","region":"NORTE","date":"20131228","time":"18:00","day_or_night":"NOITE","vehicles":[]}]
