[{
	"latitude": -30.030053,
	"longitude": -51.219629,
	"fatal": false,
	"injuried": 0,
	"type": "ABALROAMENTO",
	"address": "187 R SARMENTO LEITE",
	"region": "CENTRO",
	"date": "20130110",
	"time": "16:30",
	"day_or_night": "DIA",
	"vehicles": ["TAXI"]
},
{
	"latitude": -30.030848,
	"longitude": -51.209701,
	"fatal": false,
	"injuried": 1,
	"type": "ATROPELAMENTO",
	"address": "268 R FELIPE CAMARAO",
	"region": "CENTRO",
	"date": "20130110",
	"time": "17:45",
	"day_or_night": "DIA",
	"vehicles": []
},
{
	"latitude": -30.041006,
	"longitude": -51.211844,
	"fatal": false,
	"injuried": 1,
	"type": "CHOQUE",
	"address": "307 AV JERONIMO DE ORNELAS",
	"region": "CENTRO",
	"date": "20130113",
	"time": "18:40",
	"day_or_night": "NOITE",
	"vehicles": ["TAXI"]
},
{
	"latitude": -30.022391,
	"longitude": -51.221178,
	"fatal": false,
	"injuried": 1,
	"type": "ABALROAMENTO",
	"address": "2011 AV MAUA",
	"region": "CENTRO",
	"date": "20130114",
	"time": "11:15",
	"day_or_night": "DIA",
	"vehicles": ["AUTO"]
},
{
	"latitude": -30.027442,
	"longitude": -51.224518,
	"fatal": false,
	"injuried": 1,
	"type": "COLISAO",
	"address": "152 R DR FLORES",
	"region": "CENTRO",
	"date": "20130116",
	"time": "11:00",
	"day_or_night": "DIA",
	"vehicles": ["TAXI"]
},
{
	"latitude": -30.043631,
	"longitude": -51.227524,
	"fatal": false,
	"injuried": 1,
	"type": "ABALROAMENTO",
	"address": "AV PRAIA DE BELAS & R BARAO DO GRAVATAI",
	"region": "CENTRO",
	"date": "20130125",
	"time": "18:00",
	"day_or_night": "NOITE",
	"vehicles": ["AUTO"]
},

{
	"latitude": -30.03402,
	"longitude": -51.227296,
	"fatal": false,
	"injuried": 1,
	"type": "ABALROAMENTO",
	"address": "1022 R CEL FERNANDO MACHADO",
	"region": "CENTRO",
	"date": "20130130",
	"time": "16:20",
	"day_or_night": "DIA",
	"vehicles": ["AUTO",
	"MOTO"]
},
{
	"latitude": -30.033455,
	"longitude": -51.219415,
	"fatal": false,
	"injuried": 1,
	"type": "ABALROAMENTO",
	"address": "110 R ENG LUIZ ENGLERT",
	"region": "CENTRO",
	"date": "20130205",
	"time": "10:45",
	"day_or_night": "DIA",
	"vehicles": ["AUTO"]
},
{
	"latitude": -30.040799,
	"longitude": -51.212384,
	"fatal": false,
	"injuried": 1,
	"type": "QUEDA",
	"address": "R GEN JACINTO OSORIO & R SANTANA",
	"region": "CENTRO",
	"date": "20130315",
	"time": "18:30",
	"day_or_night": "NOITE",
	"vehicles": []
},
{
	"latitude": -30.047061,
	"longitude": -51.229342,
	"fatal": false,
	"injuried": 1,
	"type": "QUEDA",
	"address": "AV IPIRANGA & AV BORGES DE MEDEIROS",
	"region": "CENTRO",
	"date": "20130316",
	"time": "10:30",
	"day_or_night": "DIA",
	"vehicles": []
},
{
	"latitude": -30.03747,
	"longitude": -51.211435,
	"fatal": false,
	"injuried": 1,
	"type": "ABALROAMENTO",
	"address": "925 AV VENANCIO AIRES",
	"region": "CENTRO",
	"date": "20130318",
	"time": "12:45",
	"day_or_night": "DIA",
	"vehicles": ["AUTO"]
},
{
	"latitude": -30.024742,
	"longitude": -51.212622,
	"fatal": false,
	"injuried": 1,
	"type": "ABALROAMENTO",
	"address": "545 AV CRISTOVAO COLOMBO",
	"region": "CENTRO",
	"date": "20130324",
	"time": "18:15",
	"day_or_night": "NOITE",
	"vehicles": ["AUTO"]
},
{
	"latitude": -30.034106,
	"longitude": -51.228059,
	"fatal": false,
	"injuried": 1,
	"type": "ABALROAMENTO",
	"address": "929 R CEL FERNANDO MACHADO",
	"region": "CENTRO",
	"date": "20130329",
	"time": "20:15",
	"day_or_night": "NOITE",
	"vehicles": ["AUTO"]
},
{
	"latitude": -30.038896,
	"longitude": -51.22318,
	"fatal": false,
	"injuried": 0,
	"type": "ABALROAMENTO",
	"address": "550 R JOSE DO PATROCINIO",
	"region": "CENTRO",
	"date": "20130401",
	"time": "07:00",
	"day_or_night": "DIA",
	"vehicles": ["AUTO"]
},
{
	"latitude": -30.032147,
	"longitude": -51.217224,
	"fatal": false,
	"injuried": 1,
	"type": "ABALROAMENTO",
	"address": "AV OSVALDO ARANHA & R DR BARROS CASSAL",
	"region": "CENTRO",
	"date": "20130413",
	"time": "18:40",
	"day_or_night": "NOITE",
	"vehicles": ["AUTO"]
},
{
	"latitude": -30.047192,
	"longitude": -51.227982,
	"fatal": false,
	"injuried": 1,
	"type": "ABALROAMENTO",
	"address": "191 AV IPIRANGA",
	"region": "CENTRO",
	"date": "20130418",
	"time": "15:20",
	"day_or_night": "DIA",
	"vehicles": ["AUTO"]
},
{
	"latitude": -30.025931,
	"longitude": -51.214545,
	"fatal": false,
	"injuried": 0,
	"type": "ABALROAMENTO",
	"address": "302 AV CRISTOVAO COLOMBO",
	"region": "CENTRO",
	"date": "20130515",
	"time": "14:00",
	"day_or_night": "DIA",
	"vehicles": ["AUTO"]
},

{
	"latitude": -30.039857,
	"longitude": -51.216641,
	"fatal": false,
	"injuried": 1,
	"type": "ABALROAMENTO",
	"address": "1070 AV JOAO PESSOA",
	"region": "CENTRO",
	"date": "20130523",
	"time": "19:00",
	"day_or_night": "NOITE",
	"vehicles": ["ONIBUS_URB"]
},
{
	"latitude": -30.039857,
	"longitude": -51.216641,
	"fatal": false,
	"injuried": 1,
	"type": "ABALROAMENTO",
	"address": "1070 AV JOAO PESSOA",
	"region": "CENTRO",
	"date": "20130523",
	"time": "19:00",
	"day_or_night": "NOITE",
	"vehicles": ["ONIBUS_URB"]
},
{
	"latitude": -30.036131,
	"longitude": -51.209163,
	"fatal": false,
	"injuried": 1,
	"type": "ATROPELAMENTO",
	"address": "1195 AV VENANCIO AIRES",
	"region": "CENTRO",
	"date": "20130605",
	"time": "10:20",
	"day_or_night": "DIA",
	"vehicles": []
},
{
	"latitude": -30.030011,
	"longitude": -51.235137,
	"fatal": false,
	"injuried": 1,
	"type": "ABALROAMENTO",
	"address": "522 R SETE DE SETEMBRO",
	"region": "CENTRO",
	"date": "20130716",
	"time": "12:15",
	"day_or_night": "DIA",
	"vehicles": ["AUTO"]
},
{
	"latitude": -30.041563,
	"longitude": -51.222206,
	"fatal": false,
	"injuried": 1,
	"type": "ABALROAMENTO",
	"address": "385 R JOAQUIM NABUCO",
	"region": "CENTRO",
	"date": "20130731",
	"time": "19:15",
	"day_or_night": "NOITE",
	"vehicles": ["AUTO"]
},


{
	"latitude": -30.041679,
	"longitude": -51.228749,
	"fatal": false,
	"injuried": 1,
	"type": "ABALROAMENTO",
	"address": "1565 AV BORGES DE MEDEIROS",
	"region": "CENTRO",
	"date": "20130812",
	"time": "15:50",
	"day_or_night": "DIA",
	"vehicles": ["AUTO"]
},
{
	"latitude": -30.045868,
	"longitude": -51.212026,
	"fatal": false,
	"injuried": 1,
	"type": "QUEDA",
	"address": "AV IPIRANGA & AV JOAO PESSOA",
	"region": "CENTRO",
	"date": "20130830",
	"time": "17:15",
	"day_or_night": "DIA",
	"vehicles": []
},
{
	"latitude": -30.032598,
	"longitude": -51.222306,
	"fatal": false,
	"injuried": 1,
	"type": "QUEDA",
	"address": "R AVAI & AV JOAO PESSOA",
	"region": "CENTRO",
	"date": "20130904",
	"time": "18:00",
	"day_or_night": "NOITE",
	"vehicles": []
},
{
	"latitude": -30.041051,
	"longitude": -51.221071,
	"fatal": false,
	"injuried": 1,
	"type": "ABALROAMENTO",
	"address": "855 R JOSE DO PATROCINIO",
	"region": "CENTRO",
	"date": "20131025",
	"time": "15:26",
	"day_or_night": "DIA",
	"vehicles": ["AUTO"]
},
{
	"latitude": -30.03764,
	"longitude": -51.224538,
	"fatal": false,
	"injuried": 1,
	"type": "ABALROAMENTO",
	"address": "R JOSE DO PATROCINIO & R SARMENTO LEITE",
	"region": "CENTRO",
	"date": "20131105",
	"time": "13:25",
	"day_or_night": "DIA",
	"vehicles": ["AUTO"]
},
{
	"latitude": -30.035554,
	"longitude": -51.226783,
	"fatal": false,
	"injuried": 1,
	"type": "ABALROAMENTO",
	"address": "52 R JOSE DO PATROCINIO",
	"region": "CENTRO",
	"date": "20131118",
	"time": "15:00",
	"day_or_night": "DIA",
	"vehicles": ["AUTO"]
},
{
	"latitude": -30.047061,
	"longitude": -51.229342,
	"fatal": false,
	"injuried": 1,
	"type": "ABALROAMENTO",
	"address": "AV IPIRANGA & AV BORGES DE MEDEIROS",
	"region": "CENTRO",
	"date": "20131214",
	"time": "19:55",
	"day_or_night": "NOITE",
	"vehicles": ["AUTO"]
},
{
	"latitude": -30.027622,
	"longitude": -51.224288,
	"fatal": false,
	"injuried": 1,
	"type": "ABALROAMENTO",
	"address": "236 AV OTAVIO ROCHA",
	"region": "CENTRO",
	"date": "20131218",
	"time": "12:40",
	"day_or_night": "DIA",
	"vehicles": ["TAXI"]
}]